,address,latitude,longitude,price,beds,bath,square,build,year,style
0,"3536 Albert Street, Regina, Saskatchewan, S4S 3P5",50.421741,-104.61856660000001,499900,4,3,1720,Residential,1952,Freehold
1,"83 Turner Crescent, Regina, Saskatchewan, S4N 4P7",50.4537687,-104.5472798700269,259900,3,2,923,Residential,1974,Freehold
3,"4853 Trinity WAY, Regina, Saskatchewan, S4W 0E2",50.4152789,-104.6494513,439900,3,4,1406,Condominium,2011,"2 Storey, Row/Townhouse"
4,"2195 Toronto STREET, Regina, Saskatchewan, S4P 0B7",50.4755012,-104.5991419,134900,3,2,1105,Condominium,2006,"2 Storey, Row/Townhouse"
7,"2195 Toronto STREET, Regina, Saskatchewan, S4P 0B7",50.4755012,-104.5991419,134900,3,2,1105,Condominium,2006,"2 Storey, Row/Townhouse"
12,"3931 James Hill ROAD, Regina, Saskatchewan, S4W 0N8",50.4125141,-104.6595355,257000,2,3,1065,Condominium,2017,"2 Storey, Row/Townhouse"
13,"42 Mackenzie MEWS, Regina, Saskatchewan, S4N 5M5",50.4579407,-104.5419025,164900,3,2,1122,Condominium,1976,"2 Storey, Row/Townhouse"
16,"89 Westfield DRIVE, Regina, Saskatchewan, S4S 2S5",50.4056985,-104.6229806,479900,3,2,1368,Condominium,1970,"2 Storey, Row/Townhouse"
17,"89 Mackenzie WAY, Regina, Saskatchewan, S4N 5M4",50.4578201,-104.542543,169950,2,3,1122,Condominium,1976,"2 Storey, Row/Townhouse"
18,"3440 Avonhurst DRIVE 203, Regina, Saskatchewan, S4R 3K1",50.4707983,-104.6180311,260000,2,2,1084,Condominium,2014,"3 Storey, Row/Townhouse"
20,"230 Westpointe ESTATES N, Regina, Saskatchewan, S4Y 1A4",50.4794404,-104.69673497447712,524900,2,2,2032,Condominium,2001,"Bungalow, House"
21,"230 Westpointe ESTATES N, Regina, Saskatchewan, S4Y 1A4",50.4794404,-104.69673497447712,524900,2,2,2032,Condominium,2001,"Bungalow, House"
22,"2235 Wallace STREET, Regina, Saskatchewan, S4N 4A8",50.4472307,-104.5934752,299900,2,2,995,Condominium,2003,"Bungalow, Row/Townhouse"
23,"6318 Engel DRIVE, Regina, Saskatchewan, S4X 4L2",50.495905,-104.671529,289900,1,2,1008,Condominium,1989,"Bungalow, Row/Townhouse"
24,"75 Hudson DRIVE, Regina, Saskatchewan, S4S 2W1",50.41723755,-104.63410022200348,419900,3,2,2476,Residential,1967,Freehold
25,"617 College AVENUE E, Regina, Saskatchewan, S4N 0W3",50.441303,-104.57510958823529,138000,3,2,832,Residential,1955,Freehold
26,"1104 Horace STREET, Regina, Saskatchewan, S4T 5L4",50.46046855,-104.66001137340572,259900,3,1,807,Residential,1955,Freehold
27,"1931 Connaught STREET, Regina, Saskatchewan, S4T 4T6",50.4568125,-104.6467345,409900,4,2,1720,Residential,2016,Freehold
28,"1234 Argyle STREET, Regina, Saskatchewan, S4T 3R7",50.4591245,-104.63289553360681,63583,3,1,929,Residential,1946,Freehold
29,"1101 Queen STREET, Regina, Saskatchewan, S4T 4B3",50.46120595,-104.63661445006097,60233,2,1,874,Residential,1949,Freehold
30,"1616 Parker AVENUE, Regina, Saskatchewan, S4S 4S1",50.4121001,-104.60535726732274,359000,4,2,1864,Residential,1963,Freehold
31,"1008 7th AVENUE N, Regina, Saskatchewan, S4R 0H1",50.4809184,-104.59580847516679,269900,4,2,900,Residential,1973,Freehold
32,"5037 Snowbirds CRESCENT, Regina, Saskatchewan, S4W 0H5",50.4146236,-104.6522177975959,599900,4,4,1889,Residential,2013,Freehold
34,"373 Halifax STREET, Regina, Saskatchewan, S4R 1T1",50.472660700000006,-104.60311554667939,299900,4,3,975,Residential,2011,Freehold
35,"2900 Garnet STREET, Regina, Saskatchewan, S4S 1X2",50.43318725,-104.62712871294585,259900,3,1,816,Residential,1946,Freehold
36,"26 Elizabeth CRESCENT, Regina, Saskatchewan, S4T 5V9",50.46471845,-104.63989049889912,169900,3,2,918,Residential,1948,Freehold
37,"2316 McDonald STREET, Regina, Saskatchewan, S4N 2Z1",50.4420424,-104.583947225,229900,2,2,735,Residential,1950,Freehold
38,"2633 Pasqua STREET, Regina, Saskatchewan, S4S 0M4",50.43654015,-104.64049474999999,389900,4,2,1087,Residential,1954,Freehold
39,"764 Athol STREET, Regina, Saskatchewan, S4T 3B3",50.4265994,-104.6282243,169900,2,1,936,Residential,2021,Freehold
40,"8245 Wascana Gardens POINT, Regina, Saskatchewan, S4V 1G8",50.4138538,-104.52664497890025,759900,5,4,2525,Residential,2007,Freehold
41,"1108 Garnet STREET, Regina, Saskatchewan, S4T 2X8",50.46112615,-104.62714155,39900,2,1,892,Residential,1930,Freehold
42,"734 Montague STREET, Regina, Saskatchewan, S4T 3G9",50.4670202,-104.63004543205969,39900,2,1,714,Residential,1953,Freehold
43,"3248 Green Water DRIVE, Regina, Saskatchewan, S4V 3R5",50.4265258,-104.5166356772855,409900,3,3,1349,Residential,2017,Freehold
44,"1560 Rae STREET, Regina, Saskatchewan, S4T 2C7",50.4538911,-104.62137773242372,24900,2,1,855,Residential,1928,Freehold
45,"118 Ottawa STREET, Regina, Saskatchewan, S4R 1N2",50.4766152,-104.6008796001625,149900,3,1,816,Residential,1957,Freehold
46,"3612 Green Lily ROAD, Regina, Saskatchewan, S4V 3M8",50.42155205,-104.50732333723957,624900,3,4,1732,Residential,2016,Freehold
48,"2731 Cameron STREET, Regina, Saskatchewan, S4T 2W7",50.4359057,-104.62503695,349900,4,3,1218,Residential,1964,Freehold
49,"1348 Rae STREET, Regina, Saskatchewan, S4T 2C3",50.457350149999996,-104.62139474708894,54000,4,2,1178,Residential,1910,Freehold
50,"7327 Whelan DRIVE, Regina, Saskatchewan, S4X 3W8",50.498257699999996,-104.68608455391197,289900,4,3,1166,Residential,1984,Freehold
51,"6930 Maple Vista DRIVE, Regina, Saskatchewan, S4X 0J8",50.5043034,-104.6792652,799900,5,3,2214,Residential,2015,Freehold
52,"85 Dorothy STREET, Regina, Saskatchewan, S4T 7B2",50.45593715,-104.6793517166449,309900,4,3,1054,Residential,1983,Freehold
53,"1114 McEachern DRIVE N, Regina, Saskatchewan, S4X 0M7",50.4982804,-104.6243879,468900,3,3,1400,Residential,2021,Freehold
54,"3633 GREEN MOSS LANE, Regina, Saskatchewan, S4V 1M2",50.4211433,-104.52583159453627,499000,3,3,1656,Residential,2011,Freehold
55,"1812 Ottawa STREET, Regina, Saskatchewan, S4P 1P4",50.45011305,-104.60086000000001,115000,3,1,779,Residential,1952,Freehold
56,"5133 MCKINLEY AVENUE, Regina, Saskatchewan, S4T 7L2",50.4685948,-104.6551435003255,249900,4,2,846,Residential,1975,Freehold
57,"3854 Gee CRESCENT, Regina, Saskatchewan, S4V 3H4",50.4205386,-104.5038836,423900,3,3,1538,Residential,2018,Freehold
58,"3027 Robinson STREET, Regina, Saskatchewan, S4S 1V3",50.4310182,-104.62362103533232,259900,3,2,718,Residential,1927,Freehold
59,"3612 Mason AVENUE, Regina, Saskatchewan, S4S 0Z6",50.4286668,-104.63295263765605,284900,3,2,960,Residential,1952,Freehold
60,"95 PROCTER PLACE, Regina, Saskatchewan, S4S 4G2",50.418127999999996,-104.61481264490052,299900,4,2,1132,Residential,1963,Freehold
61,"2176 Lindsay STREET, Regina, Saskatchewan, S4N 3B9",50.44416045,-104.58533813420017,194500,2,1,1044,Residential,1945,Freehold
62,"2053 Wallace STREET, Regina, Saskatchewan, S4N 4A3",50.4461212,-104.59340807438356,119900,2,1,600,Residential,1927,Freehold
63,"1663 Montague STREET, Regina, Saskatchewan, S4T 7R5",50.4524584,-104.6293901,179900,4,2,1188,Residential,1945,Freehold
64,"7308 Dewdney AVENUE, Regina, Saskatchewan, S4T 1E6",50.4554469,-104.68534342505986,279900,4,3,1176,Residential,1975,Freehold
65,"2117 McTavish STREET, Regina, Saskatchewan, S4T 3X1",50.44510135,-104.6337209825324,214900,3,2,932,Residential,1926,Freehold
66,"1223 Athol STREET, Regina, Saskatchewan, S4T 3C4",50.459360849999996,-104.62796665071943,38000,2,1,714,Residential,1926,Freehold
67,"168 Halifax STREET, Regina, Saskatchewan, S4R 1S6",50.4758094,-104.60375069961538,182000,2,1,704,Residential,1957,Freehold
68,"3428 Balsam GROVE, Regina, Saskatchewan, S4V 2S4",50.4248819,-104.52980002072397,624900,4,4,2258,Residential,1991,Freehold
69,"3213 Valley Green ROAD, Regina, Saskatchewan, S4V 3R2",50.4269025,-104.5216604,399900,3,3,1360,Residential,2022,Freehold
70,"3273 Valley Green ROAD, Regina, Saskatchewan, S4V 3R2",50.4269025,-104.5216604,419900,3,3,1546,Residential,2022,Freehold
72,"2912 Trombley STREET, Regina, Saskatchewan, S4V 3Y5",50.4293693,-104.5138026,583900,3,3,1908,Residential,2022,Freehold
73,"2988 George STREET, Regina, Saskatchewan, S4V 3W1",50.4314179,-104.5108068,369900,3,3,1428,Residential,2022,Freehold
74,"7976 Lentil AVENUE, Regina, Saskatchewan, S4Y 0E9",50.4516738,-104.6934891,319900,3,3,1224,Residential,2022,Freehold
75,"142 Elmview ROAD, Regina, Saskatchewan, S4H 0B6",50.48951495,-104.60865318781833,299900,4,2,980,Residential,1970,Freehold
76,"2036 Princess STREET, Regina, Saskatchewan, S4T 3Z4",50.4463788,-104.63576719619164,214900,2,2,618,Residential,1921,Freehold
77,"2544 Albert STREET, Regina, Saskatchewan, S4P 2V9",50.4389564,-104.61863078051772,699900,3,3,2444,Residential,1942,Freehold
79,"4801 4th AVENUE, Regina, Saskatchewan, S4T 0J5",50.4627194,-104.64977145074778,275000,2,1,2620,Residential,1955,Freehold
80,"442 Arthur STREET, Regina, Saskatchewan, S4R 4X4",50.47162755,-104.64849920124135,79050,2,1,848,Residential,1919,Freehold
81,"2525 McTavish STREET, Regina, Saskatchewan, S4S 0K5",50.43786025,-104.63362407511309,399900,4,4,1908,Residential,1958,Freehold
82,"763 Rink AVENUE, Regina, Saskatchewan, S4X 1S2",50.48750715,-104.68128751608697,284900,3,2,902,Residential,1977,Freehold
83,"1530 Lacon STREET, Regina, Saskatchewan, S4N 1Z4",50.4545126,-104.56966373109691,224900,3,1,1122,Residential,1929,Freehold
84,"2407 Klein PLACE E, Regina, Saskatchewan, S4V 2B6",50.41906975,-104.54805068141434,1050000,3,4,2998,Residential,1986,Freehold
85,"34 Stapleford CRESCENT, Regina, Saskatchewan, S4R 4S5",50.4782752,-104.64781754673272,249900,4,2,1111,Residential,1959,Freehold
86,"2871 Garnet STREET, Regina, Saskatchewan, S4S 1X1",50.4424126,-104.6267951,579900,5,4,1878,Residential,2014,Freehold
87,"1028 Snowberry WAY N, Regina, Saskatchewan, S4X 4P5",50.4950245,-104.65186175587249,349900,3,3,1075,Residential,2001,Freehold
88,"4709 Castle ROAD, Regina, Saskatchewan, S4S 4W9",50.404861049999994,-104.60242534686557,224900,3,1,979,Residential,1959,Freehold
89,"9 Stapleford CRESCENT, Regina, Saskatchewan, S4R 4S3",50.477203,-104.64803470853242,312900,3,2,960,Residential,1960,Freehold
90,"1004 Dewdney AVENUE E, Regina, Saskatchewan, S4N 0C8",50.4553719,-104.5688931,244900,3,2,803,Residential,1964,Freehold
91,"1316 Princess STREET, Regina, Saskatchewan, S4T 3Y8",50.457870099999994,-104.63581147059413,56900,3,1,1051,Residential,1913,Freehold
92,"2236 RETALLACK STREET, Regina, Saskatchewan, S4T 2K6",50.443219,-104.62278110596752,219900,4,2,1260,Residential,1911,Freehold
93,"430 St John STREET, Regina, Saskatchewan, S4R 1R3",50.471934149999996,-104.60236764988773,254900,2,2,878,Residential,1977,Freehold
94,"1843 Montreal STREET, Regina, Saskatchewan, S4P 1L2",50.44956075,-104.59738257503906,139900,5,2,986,Residential,1958,Freehold
95,"1018 Lindsay STREET, Regina, Saskatchewan, S4N 3A9",50.462527,-104.585425395047,189900,3,1,1080,Residential,1965,Freehold
96,"2371 MCLURG CRESCENT, Regina, Saskatchewan, S4V 2N3",50.44102525,-104.53349198111194,494900,3,3,1489,Residential,1988,Freehold
97,"2800 Grant ROAD, Regina, Saskatchewan, S4S 5G2",50.401588450000006,-104.60804862544643,339000,4,2,1276,Residential,1961,Freehold
98,"20 - 24 Empress DRIVE, Regina, Saskatchewan, S4T 6M4",50.4487918,-104.6496745,349900,5,1,1908,Residential,1969,Freehold
99,"1143 Montague STREET, Regina, Saskatchewan, S4T 3H8",50.460566,-104.62941745234042,195000,4,2,934,Residential,1959,Freehold
100,"1917 Robinson STREET, Regina, Saskatchewan, S4T 2P4",50.448419799999996,-104.62362150695188,237500,4,3,1350,Residential,1913,Freehold
101,"800 Broadway AVENUE, Regina, Saskatchewan, S4N 1C5",50.4379473,-104.5924551262915,239900,3,2,973,Residential,1920,Freehold
102,"3904 Princess DRIVE, Regina, Saskatchewan, S4S 0E7",50.43669705,-104.6375992780277,327500,3,2,1244,Residential,1959,Freehold
103,"2752 Abbott ROAD, Regina, Saskatchewan, S4N 2J6",50.4351982,-104.5741182,338900,6,2,1040,Residential,1954,Freehold
104,"58 Straub CRESCENT, Regina, Saskatchewan, S4T 6S6",50.468212550000004,-104.6750635500415,314900,3,2,1555,Residential,1973,Freehold
105,"3400 29TH AVENUE, Regina, Saskatchewan, S4S 2P3",50.4120619,-104.62992745608602,459000,4,3,1262,Residential,1964,Freehold
106,"1777 West Market STREET, Regina, Saskatchewan, S4Y 0G2",50.4509449,-104.6984781,349900,3,2,1204,Residential,2022,Freehold
107,"1064 Princess STREET, Regina, Saskatchewan, S4T 3Y3",50.46176105,-104.63578794151212,159900,2,1,860,Residential,1946,Freehold
108,"1943 Broder STREET, Regina, Saskatchewan, S4N 3R9",50.4479843,-104.59052739241072,289000,3,2,1026,Residential,1982,Freehold
109,"3224 Winchester ROAD, Regina, Saskatchewan, S4V 2S8",50.42873285,-104.53286725086895,799000,5,3,1794,Residential,1992,Freehold
110,"1240 QUEEN STREET, Regina, Saskatchewan, S4T 4B4",50.45904675,-104.63726072878788,179900,3,1,1000,Residential,1946,Freehold
111,"2045 Broder STREET, Regina, Saskatchewan, S4N 3S3",50.44619445,-104.59057352330788,171900,2,1,712,Residential,1927,Freehold
112,"37 CASTLE PLACE, Regina, Saskatchewan, S4S 4V9",50.4092698,-104.59706140125552,499000,3,4,1780,Residential,2003,Freehold
113,"2033 Broder STREET, Regina, Saskatchewan, S4N 3S3",50.44639960000001,-104.59054895,349900,3,3,1418,Residential,2008,Freehold
114,"3878 Gee CRESCENT, Regina, Saskatchewan, S4V 3N9",50.4199682,-104.5042427,399000,3,3,1412,Residential,2019,Freehold
115,"1824 Toronto STREET, Regina, Saskatchewan, S4P 1M6",50.4498368,-104.59942382280764,154900,3,2,940,Residential,1907,Freehold
116,"1177 King STREET, Regina, Saskatchewan, S4T 4E8",50.45996015,-104.63799184999999,164900,4,2,1044,Residential,1946,Freehold
117,"1212 College AVENUE, Regina, Saskatchewan, S4P 1A9",50.441069600000006,-104.59824192369109,249900,2,1,878,Residential,1940,Freehold
118,"1002 Broad STREET N, Regina, Saskatchewan, S4R 6V3",50.49407285,-104.6064022733589,364900,4,2,1528,Residential,1975,Freehold
119,"1109 Elliott STREET, Regina, Saskatchewan, S4N 3E9",50.461110500000004,-104.5862195966376,364900,2,3,1204,Residential,2022,Freehold
120,"2727 Argyle STREET, Regina, Saskatchewan, S4S 0K7",50.435941400000004,-104.63224402953969,447000,2,2,1158,Residential,1954,Freehold
121,"5106 WASCANA VISTA PLACE, Regina, Saskatchewan, S4V 2S3",50.419741,-104.53224946597899,675000,3,4,2392,Residential,1992,Freehold
122,"4533 James Hill ROAD, Regina, Saskatchewan, S4W 0K8",50.4045734,-104.6599751,319900,4,4,1176,Residential,2013,Freehold
123,"1849 Regent STREET, Regina, Saskatchewan, S4N 1S5",50.44932375,-104.56455690000001,269900,6,2,968,Residential,1987,Freehold
124,"1837 Regent STREET, Regina, Saskatchewan, S4N 1S5",50.4495548,-104.56455599446126,269900,6,2,968,Residential,1987,Freehold
125,"4326 Meadowsweet LANE, Regina, Saskatchewan, S4X 0C2",50.5009278,-104.6432194922801,419900,3,3,1428,Residential,2008,Freehold
126,"114 PORTLAND CRESCENT, Regina, Saskatchewan, S4N 1Y1",50.43578705,-104.56608148584948,399900,4,3,1176,Residential,1957,Freehold
127,"2915 Victoria AVENUE, Regina, Saskatchewan, S4T 1K8",50.4469301,-104.623230598971,579900,6,4,3087,Residential,1911,Freehold
128,"3280 Robinson STREET, Regina, Saskatchewan, S4S 1V8",50.4268855,-104.62423970511324,339900,3,2,1000,Residential,1950,Freehold
129,"3057 Retallack STREET, Regina, Saskatchewan, S4S 1T3",50.430491950000004,-104.62215490367007,299000,3,2,1176,Residential,1928,Freehold
130,"1115 12th AVENUE E, Regina, Saskatchewan, S4N 4W2",50.44855895,-104.56728022745939,299500,3,2,1060,Residential,1974,Freehold
131,"609 GARNET STREET, Regina, Saskatchewan, S4T 2W9",50.4693166,-104.62654635178177,64900,2,1,712,Residential,1956,Freehold
132,"1861 Regent STREET, Regina, Saskatchewan, S4N 1S5",50.44909265,-104.56455826360195,269900,6,2,968,Residential,1987,Freehold
133,"19 Weekes CRESCENT, Regina, Saskatchewan, S4R 6X6",50.49561285,-104.60349304322942,268000,3,3,1564,Residential,1975,Freehold
134,"774 Athol STREET, Regina, Saskatchewan, S4T 3B3",50.46631815,-104.62859070278529,69900,2,1,560,Residential,1924,Freehold
135,"3087 Trombley STREET, Regina, Saskatchewan, S4V 3V7",50.4293693,-104.5138026,385900,2,3,1248,Residential,2022,Freehold
136,"826 Porteous STREET N, Regina, Saskatchewan, S4X 2C1",50.49054985,-104.68611880011159,215000,3,1,952,Residential,1978,Freehold
137,"3028 Hill AVENUE, Regina, Saskatchewan, S4S 0W1",50.42861095,-104.62512198301948,499900,3,3,2296,Residential,1946,Freehold
138,"279 Halifax STREET, Regina, Saskatchewan, S4R 1S9",50.474085849999994,-104.60315683452382,174900,3,1,760,Residential,1952,Freehold
139,"1841 Regent STREET, Regina, Saskatchewan, S4N 1S5",50.44945615,-104.56455650850592,269900,6,2,968,Residential,1987,Freehold
140,"421 Pasqua STREET, Regina, Saskatchewan, S4R 4M8",50.471927449999995,-104.6407032550763,82000,4,1,664,Residential,1919,Freehold
141,"1433 Robinson STREET, Regina, Saskatchewan, S4T 2N7",50.45607375,-104.6236450505277,59900,2,1,672,Residential,1924,Freehold
142,"134 College AVENUE, Regina, Saskatchewan, S4N 0W5",50.4408745,-104.6122544,289900,3,1,929,Residential,2018,Freehold
143,"2925 Grant ROAD, Regina, Saskatchewan, S4S 5G5",50.4011167,-104.60405957568801,359900,3,1,1048,Residential,1961,Freehold
144,"1208 12TH AVENUE E, Regina, Saskatchewan, S4N 0M5",50.4490775,-104.56594282439897,379900,4,2,1282,Residential,1962,Freehold
146,"240 WELLS STREET, Regina, Saskatchewan, S4R 6T1",50.4918294,-104.64724276981423,309900,4,3,1176,Residential,1975,Freehold
147,"1865 Ottawa STREET, Regina, Saskatchewan, S4S 5G5",50.449231299999994,-104.60033044394764,209900,3,1,850,Residential,1907,Freehold
148,"4141 Montague STREET, Regina, Saskatchewan, S4S 3L3",50.4359605,-104.6301156,449000,4,3,1687,Residential,1964,Freehold
149,"116 Connaught CRESCENT, Regina, Saskatchewan, S4T 6M9",50.43973995,-104.6233390390264,609900,3,2,1666,Residential,1929,Freehold
150,"4802 Sandpiper CRESCENT E, Regina, Saskatchewan, S4V 1M8",50.4138286,-104.51640120217337,658000,5,3,1554,Residential,2009,Freehold
151,"14 UNIVERSITY PARK DRIVE, Regina, Saskatchewan, S4V 0C9",50.4267052,-104.56292291388888,414900,6,3,1150,Residential,1975,Freehold
152,"855 Callander CRESCENT N, Regina, Saskatchewan, S4X 1Z2",50.4906869,-104.66509371335442,269900,3,2,962,Residential,1978,Freehold
153,"1905 Grant DRIVE, Regina, Saskatchewan, S4S 4V6",50.40770515,-104.60654337488674,319900,3,1,1092,Residential,1958,Freehold
154,"2127 Broder STREET, Regina, Saskatchewan, S4N 3S5",50.44495125,-104.59050562818697,204900,3,1,1056,Residential,1959,Freehold
155,"2853 Robinson STREET, Regina, Saskatchewan, S4S 1T9",50.4339577,-104.62361363885572,239900,2,1,893,Residential,1928,Freehold
156,"4240 QUEEN STREET, Regina, Saskatchewan, S4S 5Y4",50.411331849999996,-104.63723185888948,325000,4,3,1748,Residential,1972,Freehold
157,"3028 Hill AVENUE, Regina, Saskatchewan, S4S 0W1",50.42861095,-104.62512198301948,499900,3,3,2296,Residential,1946,Freehold
158,"4312 2nd AVENUE N, Regina, Saskatchewan, S4R 0Y4",50.472582200000005,-104.64287817071502,179900,2,1,832,Residential,1954,Freehold
159,"1324 10th AVENUE E, Regina, Saskatchewan, S4N 0J6",50.4519211,-104.5621068,199800,3,1,864,Residential,1968,Freehold
160,"114 PORTLAND CRESCENT, Regina, Saskatchewan, S4N 1Y1",50.43578705,-104.56608148584948,399900,4,3,1176,Residential,1957,Freehold
161,"421 Pasqua STREET, Regina, Saskatchewan, S4R 4M8",50.471927449999995,-104.6407032550763,82000,4,1,664,Residential,1919,Freehold
162,"1112 Garnet STREET, Regina, Saskatchewan, S4S 4M2",50.461043399999994,-104.62714383227278,149500,3,1,892,Residential,1930,Freehold
163,"7226 Wascana Cove WAY, Regina, Saskatchewan, S4V 3G2",50.41649515,-104.53078202581102,565000,5,4,2072,Residential,2005,Freehold
164,"1849 Regent STREET, Regina, Saskatchewan, S4N 1S5",50.44932375,-104.56455690000001,269900,6,2,968,Residential,1987,Freehold
165,"3624 Grassick AVENUE, Regina, Saskatchewan, S4S 0Y9",50.43027375,-104.63408674800857,314900,4,1,1008,Residential,1953,Freehold
166,"19 Weekes CRESCENT, Regina, Saskatchewan, S4R 6X6",50.49561285,-104.60349304322942,268000,3,3,1564,Residential,1975,Freehold
167,"4141 Montague STREET, Regina, Saskatchewan, S4S 3L3",50.4359605,-104.6301156,449000,4,3,1687,Residential,1964,Freehold
168,"5133 MCKINLEY AVENUE, Regina, Saskatchewan, S4T 7L2",50.4685948,-104.6551435003255,249900,4,2,846,Residential,1975,Freehold
169,"1857 Regent STREET, Regina, Saskatchewan, S4N 1S5",50.449169749999996,-104.56455778663982,269900,6,2,968,Residential,1987,Freehold
170,"279 Halifax STREET, Regina, Saskatchewan, S4R 1S9",50.474085849999994,-104.60315683452382,174900,3,1,760,Residential,1952,Freehold
171,"5106 WASCANA VISTA PLACE, Regina, Saskatchewan, S4V 2S3",50.419741,-104.53224946597899,675000,3,4,2392,Residential,1992,Freehold
172,"601 College AVENUE E, Regina, Saskatchewan, S4N 0W3",50.44186345,-104.5736803474456,249900,5,2,1130,Residential,1957,Freehold
173,"4802 Sandpiper CRESCENT E, Regina, Saskatchewan, S4V 1M8",50.4138286,-104.51640120217337,658000,5,3,1554,Residential,2009,Freehold
174,"2410 Garnet STREET, Regina, Saskatchewan, S4T 3A4",50.44060425,-104.6271032820652,719500,4,4,1772,Residential,2000,Freehold
175,"342 Rose STREET N, Regina, Saskatchewan, S4R 2Y4",50.481538400000005,-104.6082588,221900,2,1,816,Residential,1961,Freehold
176,"1138 Princess STREET, Regina, Saskatchewan, S4T 3Y5",50.46064225,-104.63582015654762,149900,3,2,920,Residential,1916,Freehold
177,"1865 Regent STREET, Regina, Saskatchewan, S4N 1S5",50.44899655,-104.5645575496768,269900,6,2,968,Residential,1987,Freehold
178,"3912 Nottingham CRESCENT E, Regina, Saskatchewan, S4V 3A5",50.4334207,-104.52664046995218,424900,4,3,1281,Residential,2001,Freehold
179,"774 Athol STREET, Regina, Saskatchewan, S4T 3B3",50.46631815,-104.62859070278529,69900,2,1,560,Residential,1924,Freehold
180,"2464 Wallace STREET, Regina, Saskatchewan, S4N 4B3",50.4395716,-104.59402254685713,254800,2,2,888,Residential,1928,Freehold
181,"2915 Victoria AVENUE, Regina, Saskatchewan, S4T 1K8",50.4469301,-104.623230598971,579900,6,4,3087,Residential,1911,Freehold
182,"1861 Regent STREET, Regina, Saskatchewan, S4N 1S5",50.44909265,-104.56455826360195,269900,6,2,968,Residential,1987,Freehold
183,"4413 Dewdney AVENUE, Regina, Saskatchewan, S4T 1B3",50.45490915,-104.64428859598448,274900,4,3,1117,Residential,1949,Freehold
184,"935 Bercovich CRESCENT, Regina, Saskatchewan, S4N 7J8",50.4634686,-104.53171690216801,349500,4,3,1044,Residential,1988,Freehold
185,"3057 Retallack STREET, Regina, Saskatchewan, S4S 1T3",50.430491950000004,-104.62215490367007,299000,3,2,1176,Residential,1928,Freehold
186,"4533 James Hill ROAD, Regina, Saskatchewan, S4W 0K8",50.4045734,-104.6599751,319900,4,4,1176,Residential,2013,Freehold
187,"2727 Argyle STREET, Regina, Saskatchewan, S4S 0K7",50.435941400000004,-104.63224402953969,447000,2,2,1158,Residential,1954,Freehold
188,"14 UNIVERSITY PARK DRIVE, Regina, Saskatchewan, S4V 0C9",50.4267052,-104.56292291388888,414900,6,3,1150,Residential,1975,Freehold
189,"1931 Connaught STREET, Regina, Saskatchewan, S4T 4T6",50.4568125,-104.6467345,409900,4,2,1720,Residential,2016,Freehold
190,"609 GARNET STREET, Regina, Saskatchewan, S4T 2W9",50.4693166,-104.62654635178177,64900,2,1,712,Residential,1956,Freehold
192,"1113 Elliott STREET, Regina, Saskatchewan, S4N 3E9",50.4617498,-104.5865334,364900,3,2,1214,Residential,2022,Freehold
193,"7311 Blakeney DRIVE, Regina, Saskatchewan, S4X 2N6",50.4924422,-104.68400935851265,319900,4,2,1007,Residential,1979,Freehold
194,"1372 Retallack STREET, Regina, Saskatchewan, S4T 2H9",50.45690125,-104.62284851058047,124900,4,2,988,Residential,1952,Freehold
195,"1433 Robinson STREET, Regina, Saskatchewan, S4T 2N7",50.45607375,-104.6236450505277,59900,2,1,672,Residential,1924,Freehold
196,"23 Stewart AVENUE, Regina, Saskatchewan, S4R 4M5",50.48026415,-104.64973501784523,314500,3,2,995,Residential,1962,Freehold
197,"134 College AVENUE, Regina, Saskatchewan, S4N 0W5",50.4408745,-104.6122544,289900,3,1,929,Residential,2018,Freehold
198,"1837 Regent STREET, Regina, Saskatchewan, S4N 1S5",50.4495548,-104.56455599446126,269900,6,2,968,Residential,1987,Freehold
199,"229 Broad STREET N, Regina, Saskatchewan, S4R 1X1",50.4796874,-104.60599559296267,324900,3,3,1380,Residential,1973,Freehold
200,"1845 Regent STREET, Regina, Saskatchewan, S4N 1S5",50.4493992,-104.56455686831822,269900,6,2,968,Residential,1987,Freehold
201,"5561 Cederholm AVENUE, Regina, Saskatchewan, S4W 0M9",50.4131216,-104.6610514,324900,2,4,1222,Residential,2015,Freehold
202,"918 Devonshire DRIVE N, Regina, Saskatchewan, S4X 2L8",50.49257455,-104.67198703232079,384900,3,2,1500,Residential,1979,Freehold
203,"2679 Crocus DRIVE E, Regina, Saskatchewan, S4V 1T3",50.43955495,-104.54458883236924,560000,4,4,1940,Residential,1986,Freehold
204,"116 Connaught CRESCENT, Regina, Saskatchewan, S4T 6M9",50.43973995,-104.6233390390264,609900,3,2,1666,Residential,1929,Freehold
205,"115 Bothwell CRESCENT, Regina, Saskatchewan, S4R 5Y7",50.49183505,-104.59692229387255,315900,3,2,1282,Residential,1974,Freehold
206,"1865 Ottawa STREET, Regina, Saskatchewan, S4S 5G5",50.449231299999994,-104.60033044394764,209900,3,1,850,Residential,1907,Freehold
207,"240 WELLS STREET, Regina, Saskatchewan, S4R 6T1",50.4918294,-104.64724276981423,309900,4,3,1176,Residential,1975,Freehold
208,"965 Dutkowski CRESCENT, Regina, Saskatchewan, S4N 6X8",50.46280955,-104.53711656841591,320000,3,2,965,Residential,1986,Freehold
209,"442 Connaught STREET, Regina, Saskatchewan, S4R 4W9",50.4715036,-104.6470231,259900,3,2,840,Residential,1969,Freehold
210,"1602 Longworthy BAY, Regina, Saskatchewan, S4V 1B7",50.44144034999999,-104.56100061629178,589900,3,3,2691,Residential,1983,Freehold
211,"7119 BOWMAN AVENUE, Regina, Saskatchewan, S4T 6K9",50.455903,-104.6810726,199900,4,2,1296,Residential,1966,Freehold
212,"746 Montague STREET, Regina, Saskatchewan, S4T 3G9",50.466790849999995,-104.63002482072369,164900,2,1,744,Residential,1952,Freehold
213,"1344 McTavish STREET, Regina, Saskatchewan, S4T 3V9",50.4574326,-104.6343515485348,159900,4,2,824,Residential,1946,Freehold
214,"1357 Elphinstone STREET, Regina, Saskatchewan, S4T 3M5",50.45716825,-104.63084435801329,139910,4,1,1121,Residential,1922,Freehold
215,"7728 Walsh AVENUE, Regina, Saskatchewan, TBA",50.5020015,-104.6922103,392900,3,3,1413,Residential,2022,Freehold
216,"238 Cornwall STREET, Regina, Saskatchewan, S4R 2G4",50.47474685,-104.6125778025492,144500,3,1,836,Residential,1957,Freehold
217,"1936 ATKINSON STREET, Regina, Saskatchewan, S4N 3W5",50.4480979,-104.59257440348486,309900,4,2,924,Residential,2010,Freehold
218,"15 Deis BAY, Regina, Saskatchewan, S4R 5R2",50.47631964999999,-104.66204904748417,579900,5,3,1885,Residential,1973,Freehold
219,"435 McIntosh STREET, Regina, Saskatchewan, S4R 4Z7",50.4716282,-104.652126,159900,3,1,972,Residential,1965,Freehold
220,"3350 Chuka BOULEVARD, Regina, Saskatchewan, S4V 3K7",50.4251715,-104.5127184,376900,3,4,1596,Residential,2017,Freehold
221,"1411 KING STREET, Regina, Saskatchewan, S4T 4G5",50.45643025,-104.63808282451424,139900,3,1,960,Residential,1928,Freehold
222,"1116 Empress STREET, Regina, Saskatchewan, S4T 5E3",50.4651715,-104.6539073,140000,2,1,768,Residential,1955,Freehold
223,"2790 Sandringham CRESCENT, Regina, Saskatchewan, S4V 3C9",50.435608,-104.53325084003782,550000,4,4,1713,Residential,2005,Freehold
224,"350 forsyth CRESCENT, Regina, Saskatchewan, S4R 5L5",50.47279975,-104.6612958,289900,4,2,850,Residential,1972,Freehold
225,"1166 Robinson STREET, Regina, Saskatchewan, S4T 2M9",50.46016725,-104.62426365607577,59900,2,1,789,Residential,1929,Freehold
226,"941 MCINTOSH STREET, Regina, Saskatchewan, S4T 5B6",50.4636215,-104.65217025007195,189900,2,1,748,Residential,1953,Freehold
227,"466 Forget STREET, Regina, Saskatchewan, S4R 4X9",50.4710747,-104.64998108974547,319900,5,2,1048,Residential,2013,Freehold
228,"5513 3rd AVENUE, Regina, Saskatchewan, S4T 0G4",50.46362765,-104.66060962532738,269900,3,1,1040,Residential,1955,Freehold
229,"1168 ELPHINSTONE STREET, Regina, Saskatchewan, S4T 3M1",50.4601136,-104.63150929024897,94900,3,2,990,Residential,1929,Freehold
230,"3130 Garnet STREET, Regina, Saskatchewan, S4S 1X5",50.42941655,-104.62711340285388,225000,2,1,630,Residential,1949,Freehold
231,"439 Argyle STREET, Regina, Saskatchewan, S4R 4C9",50.48377475,-104.63224215,309900,3,2,1056,Residential,1964,Freehold
232,"2 Dalgliesh DRIVE, Regina, Saskatchewan, S4R 4J5",50.4914376,-104.6855078,429900,3,3,1504,Residential,2022,Freehold
233,"1272 Angus STREET, Regina, Saskatchewan, S4T 1Y7",50.458559699999995,-104.61996498847117,79800,2,1,840,Residential,1905,Freehold
234,"1713 Quebec STREET, Regina, Saskatchewan, S4P 1J4",50.451595999999995,-104.59594773542749,95000,3,2,700,Residential,1951,Freehold
235,"4532 Buckingham DRIVE E, Regina, Saskatchewan, TBA",50.4293207,-104.5251775,415900,3,3,1484,Residential,2022,Freehold
236,"450 Arthur STREET, Regina, Saskatchewan, S4R 4X4",50.47147925,-104.64849604639673,63900,3,1,748,Residential,1910,Freehold
237,"2448 Atkinson STREET, Regina, Saskatchewan, S4N 3X5",50.4399374,-104.5925749596807,184000,3,2,1112,Residential,1957,Freehold
238,"2082 Harvey STREET, Regina, Saskatchewan, S4M 2M7",50.44557025,-104.57856888902577,169900,2,1,680,Residential,1938,Freehold
239,"37 Mitchell CRESCENT, Regina, Saskatchewan, S4R 5G5",50.4729673,-104.65548084973929,229900,2,2,814,Residential,1971,Freehold
240,"3065 Green Bank ROAD, Regina, Saskatchewan, S4V 3P9",50.4236831,-104.5241573,699900,3,3,2007,Residential,2022,Freehold
242,"1201 Athol STREET, Regina, Saskatchewan, S4T 3C4",50.4596824,-104.62799401617089,189000,2,2,720,Residential,1946,Freehold
243,"1718 Parker AVENUE, Regina, Saskatchewan, S4S 4S1",50.4121223,-104.60668624012156,349900,3,3,1377,Residential,1962,Freehold
244,"258 Scarth STREET N, Regina, Saskatchewan, S4R 2Z5",50.4799927,-104.61113945120968,329900,4,2,960,Residential,1961,Freehold
245,"169 DALGLIESH DRIVE, Regina, Saskatchewan, S4R 7Y9",50.486153099999996,-104.65735781878354,535000,4,3,2110,Residential,1978,Freehold
246,"2076 ELLIOTT STREET, Regina, Saskatchewan, S4N 3G9",50.445642649999996,-104.58687365,334900,5,4,1106,Residential,1974,Freehold
247,"1845 Montreal STREET, Regina, Saskatchewan, S4P 1L2",50.4494919,-104.59740470026794,125000,2,2,840,Residential,1958,Freehold
248,"62 Woodsworth CRESCENT, Regina, Saskatchewan, S4T 7C7",50.47334935,-104.66782444692049,389900,4,3,1722,Residential,1974,Freehold
249,"1072 Montague STREET, Regina, Saskatchewan, S4T 3H5",50.461578450000005,-104.63005524518437,149900,3,1,800,Residential,1924,Freehold
250,"3608 Green Lily ROAD, Regina, Saskatchewan, S4V 3M8",50.42168025,-104.5073704197314,784900,3,4,2307,Residential,2016,Freehold
251,"5600 Aerodrome ROAD, Regina, Saskatchewan, S4W 0P4",50.40709185,-104.66107442683699,450000,5,2,2076,Residential,2016,Freehold
252,"913 Retallack STREET, Regina, Saskatchewan, S4T 2H2",50.46415805,-104.62221024543183,134000,3,1,1002,Residential,1982,Freehold
253,"5907 KOEP AVENUE, Regina, Saskatchewan, S4X 0H5",50.5064832,-104.6675014,739900,4,3,2350,Residential,2017,Freehold
254,"4573 Padwick ROAD, Regina, Saskatchewan, S4W 0C3",50.400911300000004,-104.64551060149647,399900,4,2,831,Residential,2011,Freehold
255,"9 Everett CRESCENT, Regina, Saskatchewan, S4S 2M8",50.4144284,-104.6330927627627,449900,4,3,1299,Residential,1971,Freehold
256,"622 Garnet STREET, Regina, Saskatchewan, S4T 2W8",50.4691167,-104.62717805116822,89000,2,1,791,Residential,1929,Freehold
257,"183 Toronto STREET N, Regina, Saskatchewan, S4R 2T4",50.4785818,-104.59884019613048,259900,3,1,810,Residential,1961,Freehold
258,"1937 WINNIPEG STREET, Regina, Saskatchewan, S4P 1G5",50.448093549999996,-104.59486470094508,125000,3,1,1040,Residential,1924,Freehold
259,"14 Chase CRESCENT, Regina, Saskatchewan, S4R 7Y4",50.4967112,-104.59967886799288,324900,3,3,1664,Residential,1978,Freehold
260,"1320 Queen STREET, Regina, Saskatchewan, S4T 4B6",50.45782145,-104.63723962098662,57900,2,1,648,Residential,1922,Freehold
261,"4515 Sherwood DRIVE, Regina, Saskatchewan, S4R 4B3",50.476002750000006,-104.646174,299900,3,1,948,Residential,1961,Freehold
262,"2172 Rae STREET, Regina, Saskatchewan, S4T 2E7",50.4441205,-104.62136551880047,290900,5,2,1692,Residential,1909,Freehold
263,"3445 21st AVENUE, Regina, Saskatchewan, S4S 0T8",50.4292585,-104.633526,1350000,3,3,2705,Residential,2021,Freehold
264,"2060 QUEEN STREET, Regina, Saskatchewan, S4T 4C1",50.4459731,-104.63722355,259900,2,2,958,Residential,1956,Freehold
265,"1265 Atkinson STREET, Regina, Saskatchewan, S4N 3V7",50.45861635,-104.59200485,149900,2,1,753,Residential,1947,Freehold
266,"124 Durham DRIVE, Regina, Saskatchewan, S4S 4Z2",50.40651925,-104.60793325544401,679900,3,3,2018,Residential,2022,Freehold
267,"5646 MCCAUGHEY STREET, Regina, Saskatchewan, S4W 0P3",50.4078428,-104.66194615994084,429900,4,4,1407,Residential,2017,Freehold
268,"48 Dunning CRESCENT, Regina, Saskatchewan, S4S 3W1",50.419978150000006,-104.6010226,349999,5,2,1100,Residential,1957,Freehold
269,"1242 Cameron STREET, Regina, Saskatchewan, S4T 2T1",50.45902685,-104.62572466040146,49900,3,2,671,Residential,1910,Freehold
270,"7251 BLAKENEY DRIVE, Regina, Saskatchewan, S4X 2M4",50.49237795,-104.6850069700105,337000,3,2,1398,Residential,1979,Freehold
271,"2304 Dewdney AVENUE E, Regina, Saskatchewan, S4N 4E1",50.4554326,-104.55040583481687,254900,4,3,1094,Residential,1973,Freehold
272,"3265 Chuka BOULEVARD, Regina, Saskatchewan, S4V 3S5",50.419689,-104.5125239,359900,3,3,1160,Residential,2019,Freehold
273,"136 MCCAUL CRESCENT, Regina, Saskatchewan, S4R 3X1",50.4837214,-104.63500815,312900,3,1,1022,Residential,1963,Freehold
274,"20 Groome AVENUE, Regina, Saskatchewan, S4S 6E6",50.400374400000004,-104.62697015899917,359900,4,3,1074,Residential,1972,Freehold
275,"1830 Cowan CRESCENT, Regina, Saskatchewan, S4S 4C6",50.41853879999999,-104.60639484963357,334000,6,2,1198,Residential,1958,Freehold
276,"330 Hamilton STREET, Regina, Saskatchewan, S4R 2A6",50.473344600000004,-104.60970271244898,159900,2,1,560,Residential,1955,Freehold
277,"2471 Lindsay STREET, Regina, Saskatchewan, S4N 3C7",50.43952345,-104.58474771908476,100000,1,1,520,Residential,1931,Freehold
278,"298 Markwell DRIVE, Regina, Saskatchewan, S4X 1N1",50.4858166,-104.6737034,215000,4,2,980,Residential,1977,Freehold
279,"35 WHEATON CRESCENT, Regina, Saskatchewan, S4S 2Z3",50.406373099999996,-104.62378230663253,399999,5,3,1694,Residential,1966,Freehold
280,"5236 Aerial CRESCENT, Regina, Saskatchewan, S4W 0C8",50.401515450000005,-104.65512459196572,399000,3,3,1533,Residential,2012,Freehold
281,"176 Osler STREET, Regina, Saskatchewan, S4R 1V2",50.47573195,-104.60520252688596,329000,4,3,1367,Residential,1992,Freehold
282,"464 Halifax STREET, Regina, Saskatchewan, S4R 1T3",50.47111725,-104.60380742649252,99900,2,1,780,Residential,1954,Freehold
283,"814 Porteous STREET, Regina, Saskatchewan, S4X 2C1",50.4903098,-104.68609268761057,239000,3,2,1080,Residential,1978,Freehold
284,"2111 King STREET, Regina, Saskatchewan, S4T 4G9",50.44524285,-104.6380250732687,324900,4,3,880,Residential,1954,Freehold
285,"166 Lorne STREET N, Regina, Saskatchewan, S4R 3A7",50.4783187,-104.6140327873384,159900,3,1,960,Residential,1960,Freehold
286,"34 Darke CRESCENT, Regina, Saskatchewan, S4S 3X9",50.41634165000001,-104.59681200393291,319900,3,2,1100,Residential,1958,Freehold
287,"2879 McTavish STREET, Regina, Saskatchewan, S4S 2C5",50.433218999999994,-104.63369928772823,389900,2,3,1382,Residential,1966,Freehold
288,"236 Lorne STREET, Regina, Saskatchewan, S4R 2H9",50.474809449999995,-104.61402496130705,325000,5,2,1176,Residential,2002,Freehold
289,"1432 WASCANA STREET, Regina, Saskatchewan, S4T 4J5",50.456033500000004,-104.6401067,85000,2,1,840,Residential,1912,Freehold
290,"7920 Barley CRESCENT, Regina, Saskatchewan, S4Y 0E6",50.454248,-104.6952405,479900,4,4,1710,Residential,2019,Freehold
291,"211 Fairview ROAD, Regina, Saskatchewan, S4R 6H7",50.492189100000004,-104.60530154468665,309900,5,2,1041,Residential,1973,Freehold
292,"926 MONTAGUE STREET, Regina, Saskatchewan, S4T 3H3",50.46388555,-104.63006474992468,159900,4,2,756,Residential,1968,Freehold
293,"100 Daffodil CRESCENT, Regina, Saskatchewan, S4S 5A4",50.4038647,-104.60986132617333,439900,3,3,1174,Residential,1959,Freehold
294,"2346 McAra STREET, Regina, Saskatchewan, S4N 2W3",50.441545899999994,-104.58252362994642,199000,5,2,820,Residential,1958,Freehold
295,"132 Mcdougall CRESCENT, Regina, Saskatchewan, S4S 5M7",50.4021638,-104.5979301999221,267500,4,2,1041,Residential,1966,Freehold
296,"5334 McKenna CRESCENT, Regina, Saskatchewan, S4W 0G2",50.41639255,-104.65689883687091,539539,5,3,2369,Residential,2013,Freehold
297,"2173 8th AVENUE N, Regina, Saskatchewan, S4R 0G8",50.48182225,-104.61192882525,274900,4,2,1041,Residential,1965,Freehold
298,"3649 Green Cedar COURT, Regina, Saskatchewan, S4V 1M4",50.4224315,-104.522498896505,644900,4,3,1422,Residential,2012,Freehold
299,"296 Smith STREET, Regina, Saskatchewan, S4R 2K8",50.4741461,-104.61543645079203,94000,2,1,565,Residential,1955,Freehold
300,"213 McIntyre STREET, Regina, Saskatchewan, S4R 2L7",50.47508325,-104.61627444917937,497000,6,4,2109,Residential,1969,Freehold
302,"99 Cannon STREET, Regina, Saskatchewan, S4N 1M2",50.4540279,-104.55232324127925,369000,3,3,1759,Residential,1971,Freehold
303,"6 Brockelbank CRESCENT, Regina, Saskatchewan, S4R 6J6",50.4879524,-104.63885101093156,264900,3,2,857,Residential,1975,Freehold
304,"236 Lorne STREET, Regina, Saskatchewan, S4R 2H9",50.474809449999995,-104.61402496130705,325000,5,2,1176,Residential,2002,Freehold
305,"7728 Walsh AVENUE, Regina, Saskatchewan, TBA",50.5020015,-104.6922103,392900,3,3,1413,Residential,2022,Freehold
306,"65 Bannister AVENUE, Regina, Saskatchewan, S4R 5K9",50.4869456,-104.65025514902982,265000,4,2,846,Residential,1972,Freehold
307,"2026 Wallace STREET, Regina, Saskatchewan, S4N 4A4",50.44653725,-104.59400890064839,289900,4,2,1371,Residential,1909,Freehold
308,"1631 Grant DRIVE, Regina, Saskatchewan, S4S 4V1",50.407662349999995,-104.59998548941837,319000,4,3,1137,Residential,1959,Freehold
309,"916 Dewdney AVENUE E, Regina, Saskatchewan, S4N 0C6",50.45536475,-104.57008425000001,205000,2,1,790,Residential,1957,Freehold
310,"567 Scarth STREET, Regina, Saskatchewan, S4R 2C7",50.469835700000004,-104.61052705421113,154000,2,1,765,Residential,1949,Freehold
311,"5281 Aviator CRESCENT, Regina, Saskatchewan, S4W 0G9",50.41276485,-104.65737250112895,799900,5,7,2205,Residential,2013,Freehold
312,"2778 Francis STREET, Regina, Saskatchewan, S4N 2R3",50.4347654,-104.5796969,519900,5,5,1905,Residential,2014,Freehold
313,"801 Forget STREET, Regina, Saskatchewan, S4T 4X5",50.46597275,-104.64926213735289,314900,5,3,1080,Residential,1957,Freehold
314,"450 Alexandra STREET, Regina, Saskatchewan, S4R 4W5",50.47163475,-104.64421717515552,189900,3,2,1029,Residential,1975,Freehold
315,"1450 Montague STREET, Regina, Saskatchewan, S4T 3J2",50.455744800000005,-104.63012665,234900,5,4,1827,Residential,1978,Freehold
316,"3511 Burns ROAD, Regina, Saskatchewan, S4V 2G4",50.42275215,-104.55095096528007,539900,5,4,2266,Residential,1989,Freehold
317,"161 Halifax STREET N, Regina, Saskatchewan, S4R 2W5",50.478453,-104.6031608890256,269900,4,4,1407,Residential,1945,Freehold
318,"848 Elliott STREET, Regina, Saskatchewan, S4N 3E3",50.46511185,-104.58688520000001,209900,3,2,1328,Residential,1976,Freehold
319,"702 Princess STREET, Regina, Saskatchewan, S4T 3X7",50.467554899999996,-104.63577915,112000,2,1,616,Residential,1952,Freehold
320,"5469 Cade STREET E, Regina, Saskatchewan, S4V 3N9",50.4202312,-104.5047926,359900,4,4,1280,Residential,2018,Freehold
321,"3608 Lakeview AVENUE, Regina, Saskatchewan, S4S 1H2",50.422050150000004,-104.63331405174267,619900,6,3,2761,Residential,1966,Freehold
322,"1211 RETALLACK STREET, Regina, Saskatchewan, S4T 2H8",50.4595089,-104.6221833262158,97500,3,1,1109,Residential,1910,Freehold
323,"968 Rae STREET, Regina, Saskatchewan, S4T 2B4",50.46320285,-104.62142305018008,125000,4,1,969,Residential,1975,Freehold
324,"2172 Rae STREET, Regina, Saskatchewan, S4T 2E7",50.4441205,-104.62136551880047,290900,5,2,1692,Residential,1909,Freehold
325,"2333 Montreal STREET, Regina, Saskatchewan, S4P 1L9",50.44175225,-104.59738323302597,259900,3,2,1140,Residential,1913,Freehold
326,"863 Robinson STREET, Regina, Saskatchewan, S4T 2M4",50.464969800000006,-104.62365823269157,124999,2,1,1008,Residential,1912,Freehold
327,"3533 GORDON ROAD, Regina, Saskatchewan, S4S 5V5",50.405198850000005,-104.63197456296615,539900,4,4,1942,Residential,1972,Freehold
328,"439 Argyle STREET, Regina, Saskatchewan, S4R 4C9",50.48377475,-104.63224215,309900,3,2,1056,Residential,1964,Freehold
329,"1106 10th AVENUE E, Regina, Saskatchewan, S4N 0J2",50.452152999999996,-104.5674784,159900,2,1,656,Residential,1961,Freehold
330,"3338 Green Turtle ROAD, Regina, Saskatchewan, S4V 3N6",50.4246079,-104.5042207,419900,3,3,1268,Residential,2021,Freehold
331,"2460 Elliott STREET, Regina, Saskatchewan, S4N 3H4",50.43974015,-104.58685404040146,168000,2,1,906,Residential,1959,Freehold
332,"5886 McKinley AVENUE, Regina, Saskatchewan, S4T 6P3",50.4690174,-104.66647183980024,214900,2,2,853,Residential,1971,Freehold
333,"3028 St James CRESCENT, Regina, Saskatchewan, S4V 2Z2",50.43143685,-104.52930788442492,949000,5,4,2783,Residential,2001,Freehold
334,"1095 Wascana HIGHLANDS, Regina, Saskatchewan, S4V 2K5",50.424298199999996,-104.53907495326371,589900,4,3,1708,Residential,1987,Freehold
336,"4606 Pincherry PLACE E, Regina, Saskatchewan, S4V 1N1",50.412955350000004,-104.51728680344985,628500,5,3,1479,Residential,2010,Freehold
337,"5110 3rd AVENUE N, Regina, Saskatchewan, S4R 6B1",50.47410215,-104.65436605497362,309950,4,2,1282,Residential,1974,Freehold
338,"1357 Elphinstone STREET, Regina, Saskatchewan, S4T 3M5",50.45716825,-104.63084435801329,139910,4,1,1121,Residential,1922,Freehold
339,"3306 Carnegie STREET, Regina, Saskatchewan, S4R 1A6",50.49321915,-104.62852170004248,419900,2,3,1323,Residential,1984,Freehold
340,"3065 Green Bank ROAD, Regina, Saskatchewan, S4V 3P9",50.4236831,-104.5241573,699900,3,3,2007,Residential,2022,Freehold
341,"1352 Angus STREET, Regina, Saskatchewan, S4T 1Y8",50.4466595,-104.6196133,389900,8,5,2584,Residential,2015,Freehold
342,"5158 Boswell CRESCENT, Regina, Saskatchewan, S4X 4S4",50.5047803,-104.65336990633423,474900,4,4,1664,Residential,2004,Freehold
343,"276 Angus STREET, Regina, Saskatchewan, S4R 3K4",50.4741104,-104.61996685806902,209900,4,1,1040,Residential,1959,Freehold
344,"1460 Edward STREET, Regina, Saskatchewan, S4T 4M8",50.4557525,-104.64272745482583,140000,3,1,771,Residential,1956,Freehold
345,"5500 Tutor WAY, Regina, Saskatchewan, S4W 0N6",50.4156255,-104.6596999,354900,3,3,1372,Residential,2015,Freehold
346,"400 Lorne STREET, Regina, Saskatchewan, S4R 2J4",50.4722583,-104.61402559643304,179900,2,1,768,Residential,1958,Freehold
347,"814 Porteous STREET, Regina, Saskatchewan, S4X 2C1",50.4903098,-104.68609268761057,239000,3,2,1080,Residential,1978,Freehold
348,"5262 Aviator CRESCENT, Regina, Saskatchewan, S4W 0G9",50.41340655,-104.65674387724883,624900,3,4,1953,Residential,2013,Freehold
349,"1451-1453 Garnet STREET, Regina, Saskatchewan, S4T 2Y6",50.4424126,-104.6267951,129900,4,2,1774,Residential,1909,Freehold
350,"2107 Rothwell STREET, Regina, Saskatchewan, S4N 2C5",50.4453825,-104.5704418,149000,2,1,792,Residential,1963,Freehold
351,"2467 Edgar STREET, Regina, Saskatchewan, S4N 3L4",50.43973965,-104.58761738646375,239900,4,2,864,Residential,1931,Freehold
352,"1713 Quebec STREET, Regina, Saskatchewan, S4P 1J4",50.451595999999995,-104.59594773542749,95000,3,2,700,Residential,1951,Freehold
353,"4470 Nicurity DRIVE, Regina, Saskatchewan, S4X 0C3",50.5000737,-104.64476728235971,409900,3,3,1435,Residential,2007,Freehold
354,"52 Knowles CRESCENT, Regina, Saskatchewan, S4S 4P1",50.41577455,-104.60403362450441,309900,4,2,1040,Residential,1959,Freehold
355,"38 Bird BAY, Regina, Saskatchewan, S4N 1P9",50.4512929,-104.55884395,389900,3,3,1135,Residential,1971,Freehold
356,"4515 Sherwood DRIVE, Regina, Saskatchewan, S4R 4B3",50.476002750000006,-104.646174,299900,3,1,948,Residential,1961,Freehold
357,"211 Douglas CRESCENT, Regina, Saskatchewan, S4N 1J3",50.4337466,-104.58456948819128,1599000,4,4,2228,Residential,2021,Freehold
358,"46 Pearson PLACE, Regina, Saskatchewan, S4S 5W2",50.409962300000004,-104.63595072869477,269900,3,2,1230,Residential,1971,Freehold
359,"14 Springstein AVENUE, Regina, Saskatchewan, S4H 7H7",50.4893483,-104.65553670938783,475000,4,3,2021,Residential,1978,Freehold
360,"1833 Atkinson STREET, Regina, Saskatchewan, S4N 3W4",50.44972,-104.59203051098326,119000,2,1,640,Residential,1929,Freehold
361,"1602 Longworthy BAY, Regina, Saskatchewan, S4V 1B7",50.44144034999999,-104.56100061629178,589900,3,3,2691,Residential,1983,Freehold
362,"3445 21st AVENUE, Regina, Saskatchewan, S4S 0T8",50.4292585,-104.633526,1350000,3,3,2705,Residential,2021,Freehold
363,"166 Lorne STREET N, Regina, Saskatchewan, S4R 3A7",50.4783187,-104.6140327873384,159900,3,1,960,Residential,1960,Freehold
364,"6030 Dewdney AVENUE, Regina, Saskatchewan, S4T 1C9",50.4554232,-104.6676625496698,235000,3,2,846,Residential,1975,Freehold
365,"32 Acadia BAY, Regina, Saskatchewan, S4S 4T6",50.410682449999996,-104.60456790734372,329000,3,2,1542,Residential,1961,Freehold
366,"2322 RETALLACK STREET, Regina, Saskatchewan, S4T 2K8",50.441942850000004,-104.6228050267139,239900,3,1,1190,Residential,1912,Freehold
367,"1171 Queen STREET, Regina, Saskatchewan, S4T 4B3",50.460089800000006,-104.63661454999999,37500,2,1,740,Residential,1960,Freehold
369,"2340 MCDONALD STREET, Regina, Saskatchewan, S4N 2Z1",50.44160495,-104.58393098584,119900,2,1,658,Residential,1942,Freehold
370,"1845 Montreal STREET, Regina, Saskatchewan, S4P 1L2",50.4494919,-104.59740470026794,125000,2,2,840,Residential,1958,Freehold
371,"42 Dutton CRESCENT, Regina, Saskatchewan, S4N 4E5",50.456095149999996,-104.5505531,185000,4,2,1000,Residential,1973,Freehold
372,"2250 Elphinstone STREET, Regina, Saskatchewan, S4T 3N8",50.443053500000005,-104.63149316889962,489900,3,2,2105,Residential,1914,Freehold
373,"6029 Eagles COVE, Regina, Saskatchewan, S4X 0H5",50.5073568,-104.66955587914794,1350000,5,4,2979,Residential,2012,Freehold
374,"2173 8th AVENUE N, Regina, Saskatchewan, S4R 0G8",50.48182225,-104.61192882525,274900,4,2,1041,Residential,1965,Freehold
375,"1148 Princess STREET, Regina, Saskatchewan, S4T 3Y5",50.46043185,-104.6358111,139900,3,1,794,Residential,1954,Freehold
376,"3140 Grant ROAD, Regina, Saskatchewan, S4S 5H1",50.406531900000004,-104.59924993788901,309000,5,2,1584,Residential,1965,Freehold
377,"3636 Dewdney AVENUE, Regina, Saskatchewan, S4T 0Z5",50.455369899999994,-104.6338546493603,169980,6,2,1523,Residential,1925,Freehold
378,"112 College AVENUE E, Regina, Saskatchewan, S4N 0V4",50.44108865,-104.5812784981112,229999,4,2,1104,Residential,1962,Freehold
379,"841 Retallack STREET, Regina, Saskatchewan, S4T 2G9",50.465314649999996,-104.62217978575708,99900,3,2,1092,Residential,1972,Freehold
380,"1345 Aberdeen STREET, Regina, Saskatchewan, S4T 5K3",50.45767605,-104.65795992951374,189900,2,1,672,Residential,1953,Freehold
381,"941 MCINTOSH STREET, Regina, Saskatchewan, S4T 5B6",50.4636215,-104.65217025007195,189900,2,1,748,Residential,1953,Freehold
382,"112 Garnet STREET, Regina, Saskatchewan, S4R 3S1",50.47654475,-104.62717864999999,244900,3,1,1020,Residential,1957,Freehold
383,"473 Froom CRESCENT, Regina, Saskatchewan, S4N 1T5",50.4434361,-104.5704188,169900,3,2,792,Residential,1964,Freehold
384,"778 Rae STREET, Regina, Saskatchewan, S4T 2A9",50.466286350000004,-104.62137732330709,69900,4,4,1671,Residential,1924,Freehold
385,"211 Rae STREET, Regina, Saskatchewan, S4R 3L7",50.47472665,-104.6207553950141,239950,3,1,988,Residential,1958,Freehold
386,"4573 Padwick ROAD, Regina, Saskatchewan, S4W 0C3",50.400911300000004,-104.64551060149647,399900,4,2,831,Residential,2011,Freehold
387,"1718 Stoney LANE, Regina, Saskatchewan, S4X 0A7",50.5000811,-104.6059981427959,429910,3,3,1581,Residential,2008,Freehold
389,"34 Darke CRESCENT, Regina, Saskatchewan, S4S 3X9",50.41634165000001,-104.59681200393291,319900,3,2,1100,Residential,1958,Freehold
390,"3000 Albert STREET, Regina, Saskatchewan, S4S 3N7",50.4314251,-104.61861485990929,829900,3,3,2776,Residential,1923,Freehold
391,"601 Broadway AVENUE E, Regina, Saskatchewan, S4N 1A2",50.44006145,-104.57276375107728,359900,4,2,1178,Residential,1956,Freehold
392,"83 MCSHERRY CRESCENT, Regina, Saskatchewan, S4T 7B5",50.47147185,-104.67200431280261,292900,3,2,1049,Residential,1974,Freehold
393,"2 Labelle PLACE, Regina, Saskatchewan, S4N 1T8",50.439699950000005,-104.56575454981035,279000,4,3,1983,Residential,1964,Freehold
394,"7616 Mapleford BOULEVARD, Regina, Saskatchewan, S4Y 0C6",50.5012131,-104.6901448,364900,3,3,1327,Residential,2022,Freehold
395,"3726 Green Moss LANE, Regina, Saskatchewan, S4V 1P6",50.41926775,-104.52337618434228,429999,3,3,1607,Residential,2012,Freehold
396,"3410 McCallum AVENUE, Regina, Saskatchewan, S4S 0S1",50.43191915,-104.63007387550218,364900,5,2,1144,Residential,1950,Freehold
397,"2038 King STREET, Regina, Saskatchewan, S4T 4G6",50.44631895,-104.6386614847176,179900,2,1,723,Residential,1921,Freehold
398,"314 Rae STREET, Regina, Saskatchewan, S4R 3L9",50.473586600000004,-104.62140915038478,299900,4,3,1248,Residential,1993,Freehold
399,"3709 NORMANDY AVENUE, Regina, Saskatchewan, S4S 0Y1",50.4337141,-104.63433805,329900,3,2,1793,Residential,1950,Freehold
401,"1232 Cameron STREET, Regina, Saskatchewan, S4T 2T1",50.45925005,-104.6257208504305,44900,3,2,864,Residential,1952,Freehold
402,"350 forsyth CRESCENT, Regina, Saskatchewan, S4R 5L5",50.47279975,-104.6612958,289900,4,2,850,Residential,1972,Freehold
403,"969 Robinson STREET, Regina, Saskatchewan, S4T 2M6",50.4632035,-104.6236417,389000,6,4,1763,Residential,2014,Freehold
404,"4522 Green Water ROAD, Regina, Saskatchewan, S4V 3H2",50.4238112,-104.51425388994804,620000,5,3,1222,Residential,2016,Freehold
405,"375 Froom CRESCENT, Regina, Saskatchewan, S4N 1T5",50.4409177,-104.5683313028432,249900,4,2,1064,Residential,1965,Freehold
406,"2611 Makowsky CRESCENT, Regina, Saskatchewan, S4X 0M8",50.4961374,-104.62020017080734,429900,3,3,1402,Residential,2015,Freehold
407,"2348 Toronto STREET, Regina, Saskatchewan, S4P 1N6",50.441464999999994,-104.59942235195008,109000,3,1,954,Residential,1912,Freehold
408,"145 McNab CRESCENT, Regina, Saskatchewan, S4S 4B3",50.419992199999996,-104.60865131396093,349000,5,2,1118,Residential,1955,Freehold
409,"27 Neilson CRESCENT, Regina, Saskatchewan, S4R 7R1",50.4873266,-104.62237785,259900,4,2,1036,Residential,1977,Freehold
410,"412 McIntosh STREET, Regina, Saskatchewan, S4R 5R8",50.4721184,-104.6528446644008,269900,3,2,824,Residential,1973,Freehold
411,"155 Catherwood CRESCENT, Regina, Saskatchewan, S4J 7J8",50.497846949999996,-104.61303925598813,389900,4,3,1262,Residential,1979,Freehold
412,"1941 St John STREET, Regina, Saskatchewan, S4P 1S3",50.448002,-104.60176491706864,134000,3,2,900,Residential,1924,Freehold
413,"573 Elphinstone STREET, Regina, Saskatchewan, S4R 3W8",50.46989615,-104.6308082385421,269999,4,2,1020,Residential,2010,Freehold
414,"877 MCINTOSH STREET, Regina, Saskatchewan, S4T 5B5",50.46474485,-104.65215232944553,287900,4,2,864,Residential,1956,Freehold
416,"2645 Wallace STREET, Regina, Saskatchewan, S4N 4B7",50.436777449999994,-104.5933976,279900,2,2,720,Residential,1944,Freehold
417,"4685 Mutrie CRESCENT, Regina, Saskatchewan, TBA",50.4302655,-104.5167589,411900,3,3,1465,Residential,2022,Freehold
418,"3155 Green Brook ROAD, Regina, Saskatchewan, S4V 3P9",50.4283088,-104.5205175,555000,3,3,1811,Residential,2022,Freehold
419,"5236 Aerial CRESCENT, Regina, Saskatchewan, S4W 0C8",50.401515450000005,-104.65512459196572,399000,3,3,1533,Residential,2012,Freehold
420,"569 Elphinstone STREET, Regina, Saskatchewan, S4R 3W8",50.47004604999999,-104.6308088150189,269999,4,2,1031,Residential,2010,Freehold
421,"46 Hawkes AVENUE, Regina, Saskatchewan, S4X 1B4",50.482960899999995,-104.68004655465042,339000,4,3,1816,Residential,1976,Freehold
422,"238 King STREET, Regina, Saskatchewan, S4R 4H3",50.4213806,-104.6382047,176000,3,1,998,Residential,1979,Freehold
423,"1875 QUEBEC STREET, Regina, Saskatchewan, S4P 1J6",50.4490104,-104.59600268941858,154900,4,2,800,Residential,1954,Freehold
424,"2519 Winnipeg STREET, Regina, Saskatchewan, S4P 1H6",50.43890235,-104.59484919626772,174900,2,1,882,Residential,1927,Freehold
425,"2057 Francis STREET, Regina, Saskatchewan, S4N 2P2",50.44599275,-104.5793833,99900,2,1,520,Residential,1949,Freehold
426,"4536 Buckingham DRIVE E, Regina, Saskatchewan, TBA",50.4293207,-104.5251775,415900,2,3,1484,Residential,2021,Freehold
427,"3240 Green Water DRIVE, Regina, Saskatchewan, S4V 3R5",50.4235611,-104.5163683,459900,3,3,1426,Residential,2021,Freehold
428,"2340 Lorne STREET, Regina, Saskatchewan, S4P 2M9",50.4462351,-104.6137164,199900,3,1,1105,Residential,1911,Freehold
429,"423 KING STREET, Regina, Saskatchewan, S4R 4H5",50.471951250000004,-104.63803949116416,179900,3,2,1200,Residential,1942,Freehold
430,"1055 McTavish STREET, Regina, Saskatchewan, S4T 3V4",50.4618962,-104.63376040026202,89900,2,1,900,Residential,1946,Freehold
431,"464 Halifax STREET, Regina, Saskatchewan, S4R 1T3",50.47111725,-104.60380742649252,99900,2,1,780,Residential,1954,Freehold
432,"1460 Carlton STREET, Regina, Saskatchewan, S4T 7F7",50.45580905,-104.67149470000001,239900,4,2,1056,Residential,1958,Freehold
433,"1634 Longworthy BAY E, Regina, Saskatchewan, S4V 1B7",50.4415231,-104.55911760951247,579900,6,3,1620,Residential,1983,Freehold
434,"155 Bothwell CRESCENT, Regina, Saskatchewan, S4R 5Y7",50.492476249999996,-104.5956799271656,209000,2,2,912,Residential,1974,Freehold
435,"351 Ottawa STREET, Regina, Saskatchewan, S4R 1N6",50.473005900000004,-104.60025380263937,214800,2,1,840,Residential,1972,Freehold
436,"4404 Delhaye WAY, Regina, Saskatchewan, S4W 0P4",50.40827355,-104.66337355677445,489000,4,4,1403,Residential,2015,Freehold
437,"257 Hanley CRESCENT, Regina, Saskatchewan, S4R 5A9",50.48304255,-104.66038039392448,354900,4,2,1050,Residential,1971,Freehold
438,"2398 McGregor PLACE, Regina, Saskatchewan, S4V 2Y4",50.4421416,-104.53480522858013,549000,4,3,1680,Residential,2003,Leasehold
439,"1150 Rose STREET 300, Regina, Saskatchewan, S4R 1Z6",50.4402793,-104.607933,499900,3,2,4512,Condominium,1913,"Loft/Warehouse, High-Rise (4 floors or higher)"
440,"1150 Rose STREET 300, Regina, Saskatchewan, S4R 1Z6",50.4402793,-104.607933,499900,3,2,4512,Condominium,1913,"Loft/Warehouse, High-Rise (4 floors or higher)"
441,"1304 Halifax STREET 101, Regina, Saskatchewan, S4R 1V1",50.4806968,-104.603455,674900,2,3,2042,Condominium,1914,"Loft/Warehouse, Low-Rise (3 floors and under)"
442,"5500 Mitchinson WAY 2414, Regina, Saskatchewan, S4W 0N9",50.4112119,-104.65993949765225,230000,2,2,920,Condominium,2015,"Multi-Level, High-Rise (4 floors or higher)"
443,"2101 Heseltine ROAD 305, Regina, Saskatchewan, S4V 3H1",50.4421642,-104.5403581,259900,2,2,1023,Condominium,2013,"Multi-Level, High-Rise (4 floors or higher)"
444,"5303 Universal CRESCENT 201, Regina, Saskatchewan, S4W 0L1",50.4047999,-104.6567368,259500,2,1,1065,Condominium,2013,"Multi-Level, High-Rise (4 floors or higher)"
445,"2341 Windsor Park ROAD 307, Regina, Saskatchewan, S4V 1R7",50.4413065,-104.5273018,275000,1,1,829,Condominium,2011,"Multi-Level, High-Rise (4 floors or higher)"
446,"2255 Angus STREET 306, Regina, Saskatchewan, S4T 2A3",50.4288579,-104.6196112,169900,1,1,710,Condominium,2013,"Multi-Level, Low-Rise (3 floors and under)"
448,"2255 Angus STREET 306, Regina, Saskatchewan, S4T 2A3",50.4288579,-104.6196112,169900,1,1,710,Condominium,2013,"Multi-Level, Low-Rise (3 floors and under)"
451,"34 Nollet AVENUE 206, Regina, Saskatchewan, S4T 7P9",50.4823308,-104.6707827,84900,1,1,643,Condominium,1977,"Multi-Level, Low-Rise (3 floors and under)"
453,"1821 Scarth STREET 500, Regina, Saskatchewan, S4P 2G9",50.4434755,-104.6108227,799000,2,3,2569,Condominium,1906,"Penthouse, High-Rise (4 floors or higher)"
454,"51 RODENBUSH DRIVE 106, Regina, Saskatchewan, S4R 8C7",50.4973958,-104.5987942,94900,2,1,947,Condominium,1980,"Row/Townhouse Multi-Level, Low-Rise (3 floors and under)"
456,"3826 Dewdney AVENUE E 409, Regina, Saskatchewan, S4Z 0A6",50.4540012,-104.5278841,199900,3,2,1103,Condominium,2013,"Row/Townhouse Multi-Level, Row/Townhouse"
457,"1210 Empress STREET 115, Regina, Saskatchewan, S4T 1G7",50.4509466,-104.6535542,224900,2,3,1087,Condominium,2013,"Row/Townhouse Multi-Level, Row/Townhouse"
458,"3846 7th AVENUE E, Regina, Saskatchewan, S4N 7K8",50.4607943,-104.5319166,179900,3,2,1065,Condominium,1993,"Row/Townhouse Multi-Level, Row/Townhouse"
459,"3453 Elgaard DRIVE, Regina, Saskatchewan, S4X 0N4",50.495075,-104.6231547,259900,2,2,1023,Condominium,2013,"Row/Townhouse Multi-Level, Row/Townhouse"
460,"2760 Cranbourn CRESCENT, Regina, Saskatchewan, S4V 3C1",50.4317484,-104.5244306,219900,2,2,944,Condominium,2002,"Row/Townhouse Multi-Level, Row/Townhouse"
461,"1210 Empress STREET 110, Regina, Saskatchewan, S4T 1G7",50.467169,-104.6539251,203900,2,3,1087,Condominium,2013,"Row/Townhouse Multi-Level, Row/Townhouse"
462,"2305 Victoria AVENUE 601, Regina, Saskatchewan, S4P 0S7",50.44681495,-104.61420179718525,374900,2,2,1693,Condominium,1929,"Row/Townhouse Single Level, High-Rise (4 floors or higher)"
463,"7328 Dalgliesh DRIVE, Regina, Saskatchewan, S4X 2K8",50.4912403,-104.666523,84900,2,1,823,Condominium,1980,"Row/Townhouse Single Level, Low-Rise (3 floors and under)"
464,"7328 Dalgliesh DRIVE, Regina, Saskatchewan, S4X 2K8",50.4912403,-104.666523,84900,2,1,823,Condominium,1980,"Row/Townhouse Single Level, Low-Rise (3 floors and under)"
465,"178 GORE PLACE, Regina, Saskatchewan, S4T 7S4",50.4829264,-104.6697956,89900,1,1,657,Condominium,1980,"Row/Townhouse Single Level, Low-Rise (3 floors and under)"
466,"3255 GREEN BANK ROAD, Regina, Saskatchewan, S4V 1P4",50.4236831,-104.5241573,239900,2,1,1023,Condominium,2011,"Row/Townhouse Single Level, Row/Townhouse"
469,"4850 Harbour Landing DRIVE 6, Regina, Saskatchewan, S4W 0K9",50.4028035,-104.6505854,179900,2,1,1038,Condominium,2015,"Row/Townhouse Single Level, Row/Townhouse"
470,"6553 ROCHDALE BOULEVARD, Regina, Saskatchewan, S4X 2Z1",50.4965698,-104.6410012,149900,2,1,823,Condominium,1982,"Row/Townhouse Single Level, Row/Townhouse"
471,"3501 Evans COURT 412, Regina, Saskatchewan, S4S 0A9",50.42305435,-104.61354659853876,350000,2,2,1270,Condominium,2010,"Single-Level, High-Rise (4 floors or higher)"
472,"3501 Evans COURT 207, Regina, Saskatchewan, S4S 0A9",50.42305435,-104.61354659853876,579900,2,2,1550,Condominium,2010,"Single-Level, High-Rise (4 floors or higher)"
473,"4578 Harbour Landing DRIVE 205, Regina, Saskatchewan, S4W 0T1",50.401984,-104.6446087,468500,2,2,1425,Condominium,2021,"Single-Level, High-Rise (4 floors or higher)"
474,"1901 Victoria AVENUE 807, Regina, Saskatchewan, S4P 3R4",50.44687345,-104.60826162515852,279900,2,2,1109,Condominium,2006,"Single-Level, High-Rise (4 floors or higher)"
476,"4555 Rae STREET 305, Regina, Saskatchewan, S4S 3B2",50.407065700000004,-104.62038134950797,112000,1,1,651,Condominium,1968,"Single-Level, High-Rise (4 floors or higher)"
478,"2206 Dewdney AVENUE 303, Regina, Saskatchewan, S4R 1H3",50.455289,-104.6125437,449900,3,2,2419,Condominium,1913,"Single-Level, High-Rise (4 floors or higher)"
480,"2055 Rose STREET 904, Regina, Saskatchewan, S4P 2A3",50.44626565,-104.60754769976865,405900,2,2,1356,Condominium,2012,"Single-Level, High-Rise (4 floors or higher)"
483,"2830 Gordon ROAD 504, Regina, Saskatchewan, S4S 6A1",50.4046242,-104.6179339,142900,2,1,925,Condominium,1971,"Single-Level, High-Rise (4 floors or higher)"
484,"5303 Universal CRESCENT 410, Regina, Saskatchewan, S4W 0L1",50.4047999,-104.6567368,269900,2,2,947,Condominium,2013,"Single-Level, High-Rise (4 floors or higher)"
486,"1901 Victoria AVENUE 1002, Regina, Saskatchewan, S4P 3R4",50.44687345,-104.60826162515852,289900,2,2,1098,Condominium,2009,"Single-Level, High-Rise (4 floors or higher)"
488,"2909 Arens ROAD E 302, Regina, Saskatchewan, S4V 3A8",50.4337129,-104.5111471,239900,2,2,998,Condominium,2002,"Single-Level, High-Rise (4 floors or higher)"
490,"2055 Rose STREET 904, Regina, Saskatchewan, S4P 2A3",50.44626565,-104.60754769976865,405900,2,2,1356,Condominium,2012,"Single-Level, High-Rise (4 floors or higher)"
491,"2055 Rose STREET 1003, Regina, Saskatchewan, S4P 2A3",50.44626565,-104.60754769976865,432900,2,2,1356,Condominium,2012,"Single-Level, High-Rise (4 floors or higher)"
492,"3225 13th AVENUE 402, Regina, Saskatchewan, S4T 1P5",50.4455154,-104.6210583,134900,2,1,827,Condominium,1911,"Single-Level, High-Rise (4 floors or higher)"
493,"1220 Blackfoot DRIVE 420, Regina, Saskatchewan, S4S 6T2",50.4261412,-104.5996748,279000,1,1,675,Condominium,2012,"Single-Level, High-Rise (4 floors or higher)"
495,"4045 RAE STREET 312, Regina, Saskatchewan, S4S 6Y8",50.4146105,-104.62063694188741,114900,1,1,624,Condominium,1979,"Single-Level, High-Rise (4 floors or higher)"
496,"3630 Haughton ROAD 220, Regina, Saskatchewan, S4V 1P1",50.4404711,-104.5263658,238000,2,2,990,Condominium,2013,"Single-Level, High-Rise (4 floors or higher)"
497,"4555 Rae STREET 403, Regina, Saskatchewan, S4S 3B2",50.407065700000004,-104.62038134950797,165000,2,1,1100,Condominium,1968,"Single-Level, High-Rise (4 floors or higher)"
498,"1220 Blackfoot DRIVE 317, Regina, Saskatchewan, S4S 6T2",50.4261412,-104.5996748,324900,2,2,850,Condominium,2012,"Single-Level, High-Rise (4 floors or higher)"
499,"1545 Neville DRIVE 201, Regina, Saskatchewan, S4Z 0A7",50.4532696,-104.52693588290384,179900,2,1,911,Condominium,2013,"Single-Level, Low-Rise (3 floors and under)"
500,"1610 Dakota DRIVE 305, Regina, Saskatchewan, S4Z 0A5",50.452171449999994,-104.5307018641463,179900,2,1,861,Condominium,2012,"Single-Level, Low-Rise (3 floors and under)"
501,"2160 Heseltine ROAD 301, Regina, Saskatchewan, S4V 1L2",50.44267555,-104.54188469541668,329900,2,2,1061,Condominium,2009,"Single-Level, Low-Rise (3 floors and under)"
502,"3501 Evans COURT 202, Regina, Saskatchewan, S4S 0A9",50.42305435,-104.61354659853876,337500,2,1,1163,Condominium,2010,"Single-Level, Low-Rise (3 floors and under)"
503,"1621 Dakota DRIVE 115, Regina, Saskatchewan, S4Z 1A8",50.4521128,-104.52941334684012,268900,2,2,1141,Condominium,2012,"Single-Level, Low-Rise (3 floors and under)"
504,"2406 Heseltine ROAD 509, Regina, Saskatchewan, S4V 1N9",50.4421642,-104.5403581,189900,3,2,1057,Condominium,1985,"Single-Level, Low-Rise (3 floors and under)"
505,"3946 Robinson STREET 202, Regina, Saskatchewan, S4S 3C8",50.41613835,-104.6243054633999,214900,2,2,945,Condominium,2006,"Single-Level, Low-Rise (3 floors and under)"
506,"2203 ANGUS STREET 103, Regina, Saskatchewan, S4T 2A3",50.443668599999995,-104.61933224161177,147900,1,1,600,Condominium,1999,"Single-Level, Low-Rise (3 floors and under)"
507,"1205 Broad STREET 301, Regina, Saskatchewan, S4R 1Y2",50.45969135,-104.6059221,319500,2,2,1395,Condominium,1920,"Single-Level, Low-Rise (3 floors and under)"
510,"3435 Hillsdale STREET 210, Regina, Saskatchewan, S4S 0A6",50.424933,-104.6008825,399900,2,2,1291,Condominium,2007,"Single-Level, Low-Rise (3 floors and under)"
511,"3420 PARK STREET 201, Regina, Saskatchewan, S4V 2M9",50.424499100000006,-104.57317721037263,159900,2,2,1076,Condominium,1987,"Single-Level, Low-Rise (3 floors and under)"
513,"2727 Victoria AVENUE 304, Regina, Saskatchewan, S4T 1K4",50.4468829,-104.62040705,269000,2,2,1193,Condominium,1987,"Single-Level, Low-Rise (3 floors and under)"
515,"3435 Hillsdale STREET 420, Regina, Saskatchewan, S4V 1K3",50.424933,-104.6008825,548900,2,2,1361,Condominium,2007,"Single-Level, Low-Rise (3 floors and under)"
517,"285 Fines DRIVE, Regina, Saskatchewan, S4N 5T9",50.4502267,-104.5393973,94900,2,1,803,Condominium,1979,"Single-Level, Low-Rise (3 floors and under)"
519,"5055 James Hill ROAD 115, Regina, Saskatchewan, S4W 0B9",50.4023797,-104.649176,179999,2,1,753,Condominium,2011,"Single-Level, Low-Rise (3 floors and under)"
520,"1867 15th AVENUE 302, Regina, Saskatchewan, S4S 4J4",50.4424087,-104.5821696,249000,2,2,1264,Condominium,1989,"Single-Level, Low-Rise (3 floors and under)"
522,"1700 Badham BOULEVARD 306, Regina, Saskatchewan, S4P 0J7",50.4390256,-104.6047007,499900,2,2,1216,Condominium,2015,"Single-Level, Low-Rise (3 floors and under)"
523,"1700 Badham BOULEVARD 301, Regina, Saskatchewan, S4P 0J7",50.4390256,-104.6047007,799900,3,3,2207,Condominium,2015,"Single-Level, Low-Rise (3 floors and under)"
525,"70B Nollet AVENUE, Regina, Saskatchewan, S4T 7T9",50.4823308,-104.6707827,107900,1,1,700,Condominium,1977,"Single-Level, Low-Rise (3 floors and under)"
526,"5303 Universal CRESCENT 404, Regina, Saskatchewan, S4W 0L1",50.404034,-104.6567292,259900,2,2,947,Condominium,2013,"Single-Level, Low-Rise (3 floors and under)"
528,"7326 Bennett DRIVE, Regina, Saskatchewan, S4X 2V3",50.490875,-104.6865183,129900,2,1,823,Condominium,1980,"Single-Level, Row/Townhouse"
531,"5071 James Hill ROAD 150, Regina, Saskatchewan, S4W 0B9",50.4023797,-104.649176,179950,2,1,753,Condominium,2010,"Single-Level, Row/Townhouse"
532,"1825 Wallace Street, Regina, Saskatchewan, S4N 3Z8",50.4498381,-104.59344897123077,54900,2,1,520,Residential,1914,Freehold
535,"2157 Rae Street, Regina, Saskatchewan, S4T2E8",50.4444244,-104.62065485,69900,0,1,300,Residential,1967,Low rise
